{
"type": "FeatureCollection",
"name": "trails_Avenza_final_sbc",
"features": [
{ "type": "Feature", "properties": { "Name": "Bench", "description": null, "timestamp": "2018\/04\/21 13:02:20", "begin": null, "end": null, "altitudeMode": null, "tessellate": -1, "extrude": 0, "visibility": -1, "drawOrder": null, "icon": null }, "geometry": { "type": "Point", "coordinates": [ -84.677838172539197, 37.819724599654002, 0.0 ] } },
{ "type": "Feature", "properties": { "Name": "Creek Crossing ", "description": null, "timestamp": "2018\/04\/21 14:40:32", "begin": null, "end": null, "altitudeMode": null, "tessellate": -1, "extrude": 0, "visibility": -1, "drawOrder": null, "icon": null }, "geometry": { "type": "Point", "coordinates": [ -84.6850332259786, 37.805979024974903, 0.0 ] } },
{ "type": "Feature", "properties": { "Name": "Divergent (Far Hill And Brown)", "description": null, "timestamp": "2018\/04\/21 15:20:20", "begin": null, "end": null, "altitudeMode": null, "tessellate": -1, "extrude": 0, "visibility": -1, "drawOrder": null, "icon": null }, "geometry": { "type": "Point", "coordinates": [ -84.683077112138449, 37.810660353505909, 0.0 ] } },
{ "type": "Feature", "properties": { "Name": "Divergent (Loop Of Brown and River)", "description": null, "timestamp": "2018\/04\/21 13:10:47", "begin": null, "end": null, "altitudeMode": null, "tessellate": -1, "extrude": 0, "visibility": -1, "drawOrder": null, "icon": null }, "geometry": { "type": "Point", "coordinates": [ -84.677756573444185, 37.824375162735443, 0.0 ] } },
{ "type": "Feature", "properties": { "Name": "Divergent Loops Of Crutcher Trail", "description": null, "timestamp": "2018\/04\/21 14:18:01", "begin": null, "end": null, "altitudeMode": null, "tessellate": -1, "extrude": 0, "visibility": -1, "drawOrder": null, "icon": null }, "geometry": { "type": "Point", "coordinates": [ -84.681792084967341, 37.810044336912476, 0.0 ] } },
{ "type": "Feature", "properties": { "Name": "Divergent Trails (Crutcher Loop and Creek Trail)", "description": null, "timestamp": "2018\/04\/21 14:35:53", "begin": null, "end": null, "altitudeMode": null, "tessellate": -1, "extrude": 0, "visibility": -1, "drawOrder": null, "icon": null }, "geometry": { "type": "Point", "coordinates": [ -84.683473169013396, 37.806302454809497, 0.0 ] } },
{ "type": "Feature", "properties": { "Name": "Divergent Trails (Loop Of Creek Trail)", "description": null, "timestamp": "2018\/04\/21 15:00:32", "begin": null, "end": null, "altitudeMode": null, "tessellate": -1, "extrude": 0, "visibility": -1, "drawOrder": null, "icon": null }, "geometry": { "type": "Point", "coordinates": [ -84.687241638972296, 37.807605925281102, 0.0 ] } },
{ "type": "Feature", "properties": { "Name": "Entrance To Park(Parking)", "description": null, "timestamp": "2018\/04\/21 12:30:19", "begin": null, "end": null, "altitudeMode": null, "tessellate": -1, "extrude": 0, "visibility": -1, "drawOrder": null, "icon": null }, "geometry": { "type": "Point", "coordinates": [ -84.686710005421801, 37.814599052884802, 0.0 ] } },
{ "type": "Feature", "properties": { "Name": "Entrance to Trails", "description": null, "timestamp": "2018\/04\/21 12:38:14", "begin": null, "end": null, "altitudeMode": null, "tessellate": -1, "extrude": 0, "visibility": -1, "drawOrder": null, "icon": null }, "geometry": { "type": "Point", "coordinates": [ -84.686246278429195, 37.814982291529603, 0.0 ] } },
{ "type": "Feature", "properties": { "Name": "Flower Overlook", "description": null, "timestamp": "2018\/04\/21 14:16:15", "begin": null, "end": null, "altitudeMode": null, "tessellate": -1, "extrude": 0, "visibility": -1, "drawOrder": null, "icon": null }, "geometry": { "type": "Point", "coordinates": [ -84.681428439630295, 37.810253949312703, 0.0 ] } },
{ "type": "Feature", "properties": { "Name": "Kentucky River Bottom", "description": null, "timestamp": "2018\/04\/21 13:21:40", "begin": null, "end": null, "altitudeMode": null, "tessellate": -1, "extrude": 0, "visibility": -1, "drawOrder": null, "icon": null }, "geometry": { "type": "Point", "coordinates": [ -84.680374659378799, 37.8294481024653, 0.0 ] } },
{ "type": "Feature", "properties": { "Name": "Old Mill Stone ", "description": null, "timestamp": "2018\/04\/21 14:44:18", "begin": null, "end": null, "altitudeMode": null, "tessellate": -1, "extrude": 0, "visibility": -1, "drawOrder": null, "icon": null }, "geometry": { "type": "Point", "coordinates": [ -84.685771755952601, 37.806224756507902, 0.0 ] } },
{ "type": "Feature", "properties": { "Name": "River Overlook", "description": null, "timestamp": "2018\/04\/21 14:28:53", "begin": null, "end": null, "altitudeMode": null, "tessellate": -1, "extrude": 0, "visibility": -1, "drawOrder": null, "icon": null }, "geometry": { "type": "Point", "coordinates": [ -84.681130232895796, 37.806521764270002, 0.0 ] } },
{ "type": "Feature", "properties": { "Name": "Secondary  Entrance To Creek Loop Trail", "description": null, "timestamp": "2018\/04\/21 15:02:50", "begin": null, "end": null, "altitudeMode": null, "tessellate": -1, "extrude": 0, "visibility": -1, "drawOrder": null, "icon": null }, "geometry": { "type": "Point", "coordinates": [ -84.688028306871203, 37.807998161334297, 0.0 ] } },
{ "type": "Feature", "properties": { "Name": "Spring Water Feature", "description": null, "timestamp": "2018\/04\/21 12:57:03", "begin": null, "end": null, "altitudeMode": null, "tessellate": -1, "extrude": 0, "visibility": -1, "drawOrder": null, "icon": null }, "geometry": { "type": "Point", "coordinates": [ -84.679067515667796, 37.815903107972701, 0.0 ] } },
{ "type": "Feature", "properties": { "Name": "Stream Crossing ", "description": null, "timestamp": "2018\/04\/21 14:03:13", "begin": null, "end": null, "altitudeMode": null, "tessellate": -1, "extrude": 0, "visibility": -1, "drawOrder": null, "icon": null }, "geometry": { "type": "Point", "coordinates": [ -84.682811546514301, 37.814789075675101, 0.0 ] } },
{ "type": "Feature", "properties": { "Name": "Trial Diverge (Brown-Crutcher)", "description": null, "timestamp": "2018\/04\/21 12:49:52", "begin": null, "end": null, "altitudeMode": null, "tessellate": -1, "extrude": 0, "visibility": -1, "drawOrder": null, "icon": null }, "geometry": { "type": "Point", "coordinates": [ -84.68307652311357, 37.815006153533055, 0.0 ] } },
{ "type": "Feature", "properties": { "Name": "Trial Diverge(Brown-Cruther and Far Hill)", "description": null, "timestamp": "2018\/04\/21 12:45:47", "begin": null, "end": null, "altitudeMode": null, "tessellate": -1, "extrude": 0, "visibility": -1, "drawOrder": null, "icon": null }, "geometry": { "type": "Point", "coordinates": [ -84.68338133405922, 37.814931868159455, 0.0 ] } }
]
}
